execution_id,location_name,location_code,region,country,lat,lon,tz_id,localtime,temp_c,temp_f,feels_like_c,feels_like_f,humidity,wind_kph,wind_mph,wind_degree,wind_dir,gust_kph,gust_mph,pressure_mb,pressure_in,precip_mm,precip_in,cloud,uv,vis_km,vis_miles,condition_text,condition_code,aqi_us,aqi_gb,pm2_5,pm10,co,no2,o3,so2,last_updated,extract_time
EXEC-20251122-002,Hà Nội,HN,Miền Bắc,Vietnam,21.0333,105.8500,Asia/Bangkok,2025-11-22 22:20,20.0,68.0,20.0,68.0,68,8.6,5.4,157,SSE,15.7,9.8,1021.0,30.15,0.0,0.00,0,0.0,7.0,4.0,"Clear",1000,2,3,27.55,27.65,226.85,5.65,128.00,26.45,2025-11-22 22:15,2025-11-22 22:22:45
EXEC-20251122-002,Hải Phòng,HP,Miền Bắc,Vietnam,20.8561,106.6822,Asia/Bangkok,2025-11-22 22:20,18.6,65.4,18.6,65.4,60,8.3,5.1,52,NE,15.3,9.5,1021.0,30.14,0.0,0.00,31,0.0,10.0,6.0,"Partly Cloudy",1003,2,2,19.55,19.55,324.85,11.85,109.00,16.95,2025-11-22 22:15,2025-11-22 22:22:45
EXEC-20251122-002,Hạ Long,QN,Miền Bắc,Vietnam,21.2333,106.9000,Asia/Bangkok,2025-11-22 22:20,17.2,63.0,17.2,63.0,60,5.0,3.1,22,NNE,9.4,5.9,1021.0,30.15,0.0,0.00,25,0.0,10.0,6.0,"Partly Cloudy",1003,2,2,20.55,20.55,260.85,7.25,110.00,20.55,2025-11-22 22:15,2025-11-22 22:22:45
EXEC-20251122-002,Bắc Ninh,BNI,Miền Bắc,Vietnam,21.1833,106.0500,Asia/Bangkok,2025-11-22 22:20,20.1,68.2,20.1,68.2,64,4.7,2.9,118,ESE,8.1,5.1,1021.0,30.15,0.0,0.00,0,0.0,8.0,4.0,"Clear",1000,2,3,25.55,25.55,270.85,8.55,113.00,33.35,2025-11-22 22:15,2025-11-22 22:22:45
EXEC-20251122-002,Hải Dương,HD,Miền Bắc,Vietnam,20.9333,106.3167,Asia/Bangkok,2025-11-22 22:20,20.0,68.0,20.0,68.0,68,9.0,5.6,56,ENE,14.6,9.1,1021.0,30.15,0.0,0.00,0,0.0,7.0,4.0,"Partly Cloudy",1003,2,2,19.55,19.55,314.85,11.85,109.00,16.95,2025-11-22 22:15,2025-11-22 22:22:45
EXEC-20251122-002,Hưng Yên,HY,Miền Bắc,Vietnam,20.6500,106.0667,Asia/Bangkok,2025-11-22 22:20,20.0,68.0,20.0,68.0,68,5.4,3.4,71,ENE,10.0,6.2,1021.0,30.15,0.0,0.00,0,0.0,7.0,4.0,"Partly Cloudy",1003,2,3,29.15,29.25,306.85,10.25,127.00,21.35,2025-11-22 22:15,2025-11-22 22:22:46
EXEC-20251122-002,Phủ Lý,HNA,Miền Bắc,Vietnam,20.5410,105.9140,Asia/Bangkok,2025-11-22 22:20,18.9,66.1,18.9,66.1,62,5.4,3.4,71,ENE,10.0,6.2,1021.0,30.14,0.0,0.00,44,0.0,10.0,6.0,"Partly Cloudy",1003,2,3,29.15,29.25,306.85,10.25,127.00,21.35,2025-11-22 22:15,2025-11-22 22:22:46
EXEC-20251122-002,Nam Định,ND,Miền Bắc,Vietnam,20.4167,106.1667,Asia/Bangkok,2025-11-22 22:20,19.1,66.3,19.1,66.3,62,5.8,3.6,69,ENE,10.5,6.5,1021.0,30.14,0.0,0.00,45,0.0,10.0,6.0,"Partly Cloudy",1003,2,3,29.15,29.25,306.85,10.25,127.00,21.35,2025-11-22 22:15,2025-11-22 22:22:46
EXEC-20251122-002,Thái Bình,TB,Miền Bắc,Vietnam,20.4500,106.3330,Asia/Bangkok,2025-11-22 22:20,19.6,67.2,19.6,67.2,59,8.6,5.4,63,ENE,15.5,9.6,1021.0,30.14,0.0,0.00,46,0.0,10.0,6.0,"Partly Cloudy",1003,2,2,21.55,21.65,262.85,8.55,122.00,16.65,2025-11-22 22:15,2025-11-22 22:22:46
EXEC-20251122-002,Ninh Bình,NB,Miền Bắc,Vietnam,20.2539,105.9750,Asia/Bangkok,2025-11-22 22:20,18.9,66.1,18.9,66.1,62,5.4,3.4,71,ENE,10.0,6.2,1021.0,30.14,0.0,0.00,44,0.0,10.0,6.0,"Partly Cloudy",1003,2,3,29.15,29.25,306.85,10.25,127.00,21.35,2025-11-22 22:15,2025-11-22 22:22:46
EXEC-20251122-002,Vĩnh Yên,VP,Miền Bắc,Vietnam,21.3100,105.5970,Asia/Bangkok,2025-11-22 22:20,20.0,68.0,20.0,68.0,68,6.5,4.0,130,SE,12.7,7.9,1021.0,30.15,0.0,0.00,0,0.0,7.0,4.0,"Clear",1000,2,3,29.35,29.45,415.85,7.65,134.00,31.85,2025-11-22 22:15,2025-11-22 22:22:46
EXEC-20251122-002,Bắc Giang,BG,Miền Bắc,Vietnam,21.2667,106.2000,Asia/Bangkok,2025-11-22 22:20,20.0,68.0,20.0,68.0,68,4.7,2.9,118,ESE,8.1,5.1,1021.0,30.15,0.0,0.00,0,0.0,7.0,4.0,"Clear",1000,2,3,25.55,25.55,270.85,8.55,113.00,33.35,2025-11-22 22:15,2025-11-22 22:22:47
EXEC-20251122-002,Việt Trì,PT,Miền Bắc,Vietnam,21.3020,105.4310,Asia/Bangkok,2025-11-22 22:20,20.0,68.0,20.0,68.0,68,3.6,2.2,279,W,4.8,3.0,1021.0,30.15,0.0,0.00,0,0.0,7.0,4.0,"Clear",1000,3,7,56.75,56.95,563.85,52.85,56.00,42.95,2025-11-22 22:15,2025-11-22 22:22:47
EXEC-20251122-002,Thái Nguyên,TN,Miền Bắc,Vietnam,21.5930,105.8440,Asia/Bangkok,2025-11-22 22:20,20.0,68.0,20.0,68.0,68,3.6,2.2,73,ENE,6.1,3.8,1021.0,30.15,0.0,0.00,0,0.0,7.0,4.0,"Clear",1000,2,2,21.25,21.35,318.85,5.85,113.00,21.85,2025-11-22 22:15,2025-11-22 22:22:47
EXEC-20251122-002,Lạng Sơn,LS,Miền Bắc,Vietnam,21.8330,106.7330,Asia/Bangkok,2025-11-22 22:20,14.6,58.3,15.5,59.9,73,3.6,2.2,56,ENE,6.6,4.1,1022.0,30.17,0.0,0.00,14,0.0,10.0,6.0,"Clear",1000,2,2,17.45,17.45,281.85,2.55,122.00,13.05,2025-11-22 22:15,2025-11-22 22:22:47
EXEC-20251122-002,Cao Bằng,CB,Miền Bắc,Vietnam,22.6667,106.2500,Asia/Bangkok,2025-11-22 22:20,12.7,54.9,12.7,54.9,80,3.6,2.2,3,N,4.4,2.7,1022.0,30.19,0.0,0.00,9,0.0,10.0,6.0,"Clear",1000,1,1,10.85,10.95,292.85,1.65,112.00,7.25,2025-11-22 22:15,2025-11-22 22:22:47
EXEC-20251122-002,Bắc Kạn,BK,Miền Bắc,Vietnam,22.1330,105.8330,Asia/Bangkok,2025-11-22 22:20,13.6,56.5,13.6,56.5,81,3.6,2.2,44,NE,6.0,3.7,1022.0,30.17,0.0,0.00,9,0.0,10.0,6.0,"Clear",1000,1,2,12.65,12.65,242.85,1.15,111.00,6.85,2025-11-22 22:15,2025-11-22 22:22:47
EXEC-20251122-002,Tuyên Quang,TQ,Miền Bắc,Vietnam,21.8233,105.2181,Asia/Bangkok,2025-11-22 22:20,17.0,62.6,17.0,62.6,72,3.6,2.2,38,NE,10.8,6.7,1021.0,30.15,0.0,0.00,21,0.0,10.0,6.0,"Clear",1000,2,2,20.95,21.15,243.85,1.65,137.00,11.15,2025-11-22 22:15,2025-11-22 22:22:48
EXEC-20251122-002,Hà Giang,HG,Miền Bắc,Vietnam,22.8333,104.9833,Asia/Bangkok,2025-11-22 22:20,13.7,56.6,13.7,56.6,93,3.6,2.2,315,NW,4.2,2.6,1022.0,30.18,0.0,0.00,12,0.0,10.0,6.0,"Clear",1000,1,2,14.95,15.25,235.85,1.25,109.00,6.65,2025-11-22 22:15,2025-11-22 22:22:48
EXEC-20251122-002,Lào Cai,LC,Miền Bắc,Vietnam,22.4833,103.9500,Asia/Bangkok,2025-11-22 22:21,10.8,51.4,10.8,51.4,90,3.6,2.2,215,SW,10.8,6.7,1022.0,30.17,0.0,0.00,29,0.0,10.0,6.0,"Partly Cloudy",1003,2,2,16.35,16.65,277.85,1.55,111.00,7.95,2025-11-22 22:15,2025-11-22 22:22:48
EXEC-20251122-002,Yên Bái,YB,Miền Bắc,Vietnam,21.7000,104.8670,Asia/Bangkok,2025-11-22 22:20,17.0,62.6,17.0,62.6,72,3.6,2.2,38,NE,10.8,6.7,1021.0,30.15,0.0,0.00,21,0.0,10.0,6.0,"Clear",1000,2,2,20.95,21.15,243.85,1.65,137.00,11.15,2025-11-22 22:15,2025-11-22 22:22:48
EXEC-20251122-002,Lai Châu,LCH,Miền Bắc,Vietnam,22.0667,103.1667,Asia/Bangkok,2025-11-22 22:20,10.5,51.0,10.5,50.8,95,4.7,2.9,64,ENE,9.8,6.1,1020.0,30.12,0.0,0.00,36,0.0,2.0,1.0,"Mist",1030,1,2,13.25,13.55,219.85,1.15,98.00,5.45,2025-11-22 22:15,2025-11-22 22:22:48
EXEC-20251122-002,Điện Biên,DB,Miền Bắc,Vietnam,21.3833,103.0167,Asia/Bangkok,2025-11-22 22:20,11.4,52.5,11.3,52.4,96,5.0,3.1,90,E,10.6,6.6,1020.0,30.12,0.0,0.00,46,0.0,2.0,1.0,"Mist",1030,1,1,11.45,11.65,185.85,1.25,94.00,5.15,2025-11-22 22:15,2025-11-22 22:22:48
EXEC-20251122-002,Sơn La,SL,Miền Bắc,Vietnam,21.3167,103.9000,Asia/Bangkok,2025-11-22 22:20,10.7,51.3,10.3,50.5,94,6.1,3.8,157,SSE,12.9,8.0,1021.0,30.15,0.0,0.00,27,0.0,10.0,6.0,"Partly Cloudy",1003,1,2,12.65,12.85,244.85,1.35,102.00,5.45,2025-11-22 22:15,2025-11-22 22:22:48
EXEC-20251122-002,Hòa Bình,HB,Miền Bắc,Vietnam,20.8133,105.3383,Asia/Bangkok,2025-11-22 22:20,20.0,68.0,20.0,68.0,68,5.0,3.1,187,S,10.6,6.6,1021.0,30.15,0.0,0.00,0,0.0,7.0,4.0,"Clear",1000,2,3,26.45,26.55,338.85,5.55,139.00,26.25,2025-11-22 22:15,2025-11-22 22:22:49
EXEC-20251122-002,Thanh Hóa,TH,Miền Trung,Vietnam,19.8000,105.7667,Asia/Bangkok,2025-11-22 22:21,19.1,66.3,19.1,66.3,68,4.3,2.7,3,N,7.5,4.7,1021.0,30.14,0.0,0.00,32,0.0,10.0,6.0,"Partly Cloudy",1003,2,3,26.95,27.05,330.85,12.25,119.00,34.85,2025-11-22 22:15,2025-11-22 22:22:49
EXEC-20251122-002,Vinh,NA,Miền Trung,Vietnam,18.6667,105.6667,Asia/Bangkok,2025-11-22 22:21,19.6,67.3,19.6,67.3,73,4.0,2.5,332,NNW,6.4,4.0,1020.0,30.13,0.0,0.00,57,0.0,10.0,6.0,"Partly Cloudy",1003,2,3,28.35,30.15,304.85,6.75,142.00,18.55,2025-11-22 22:15,2025-11-22 22:22:49
EXEC-20251122-002,Hà Tĩnh,HT,Miền Trung,Vietnam,18.3333,105.9000,Asia/Bangkok,2025-11-22 22:21,19.1,66.4,19.1,66.4,77,6.8,4.3,325,NW,11.6,7.2,1020.0,30.12,0.0,0.00,93,0.0,10.0,6.0,"Overcast",1009,2,2,23.05,26.85,320.85,4.95,126.00,10.75,2025-11-22 22:15,2025-11-22 22:22:50
EXEC-20251122-002,Đồng Hới,QB,Miền Trung,Vietnam,17.5000,106.6333,Asia/Bangkok,2025-11-22 22:21,20.2,68.3,20.2,68.3,81,18.0,11.2,344,NNW,25.5,15.9,1019.0,30.09,0.1,0.00,100,0.0,10.0,6.0,"Patchy rain nearby",1063,2,2,20.35,25.85,256.85,1.95,137.00,8.45,2025-11-22 22:15,2025-11-22 22:22:50
EXEC-20251122-002,Đông Hà,QT,Miền Trung,Vietnam,19.8167,105.9000,Asia/Bangkok,2025-11-22 22:21,19.2,66.5,19.2,66.5,68,4.3,2.7,9,N,7.5,4.6,1021.0,30.14,0.0,0.00,32,0.0,10.0,6.0,"Partly Cloudy",1003,2,3,26.95,27.05,330.85,12.25,119.00,34.85,2025-11-22 22:15,2025-11-22 22:22:51
EXEC-20251122-002,Huế,TTH,Miền Trung,Ethiopia,14.2500,36.5830,Africa/Asmara,2025-11-22 18:21,33.4,92.1,31.3,88.4,20,13.3,8.3,344,NNW,24.7,15.3,1007.0,29.73,0.0,0.00,4,0.0,10.0,6.0,"Sunny",1000,1,1,9.82,15.32,146.82,1.22,110.00,1.82,2025-11-22 18:15,2025-11-22 22:22:51
EXEC-20251122-002,Đà Nẵng,DN,Miền Trung,Vietnam,17.8167,105.9000,Asia/Bangkok,2025-11-22 22:21,15.9,60.7,15.9,60.7,88,5.8,3.6,339,NNW,8.7,5.4,1020.0,30.13,0.0,0.00,99,0.0,10.0,6.0,"Overcast",1009,2,2,19.15,21.45,347.85,3.75,115.00,8.35,2025-11-22 22:15,2025-11-22 22:22:51
EXEC-20251122-002,Tam Kỳ,QNA,Miền Trung,Vietnam,15.5667,108.4833,Asia/Ho_Chi_Minh,2025-11-22 22:21,21.1,70.0,21.1,70.0,94,12.6,7.8,271,W,20.2,12.6,1018.0,30.06,1.4,0.05,75,0.0,6.0,3.0,"Patchy light rain",1180,2,3,26.95,31.15,272.85,7.75,88.00,8.05,2025-11-22 22:15,2025-11-22 22:22:52
EXEC-20251122-002,Quảng Ngãi,QNG,Miền Trung,Vietnam,15.1167,108.8000,Asia/Ho_Chi_Minh,2025-11-22 22:21,19.8,67.6,19.8,67.6,95,8.6,5.4,299,WNW,13.7,8.5,1016.0,30.02,0.5,0.02,100,0.0,10.0,6.0,"Light rain shower",1240,2,2,21.45,25.75,374.85,6.55,89.00,5.45,2025-11-22 22:15,2025-11-22 22:22:52
EXEC-20251122-002,Quy Nhơn,BD,Miền Trung,Vietnam,13.7667,109.2333,Asia/Ho_Chi_Minh,2025-11-22 22:21,22.3,72.1,24.7,76.5,94,18.7,11.6,342,NNW,28.1,17.5,1015.0,29.96,1.2,0.05,100,0.0,10.0,6.0,"Light rain shower",1240,1,2,14.45,18.15,263.85,2.85,91.00,2.75,2025-11-22 22:15,2025-11-22 22:22:53
EXEC-20251122-002,Tuy Hòa,PY,Miền Trung,Vietnam,13.0833,109.3000,Asia/Ho_Chi_Minh,2025-11-22 22:21,23.3,73.9,25.7,78.3,95,12.6,7.8,22,NNE,20.2,12.5,1014.0,29.95,1.0,0.04,100,0.0,10.0,6.0,"Light rain shower",1240,1,1,11.45,14.45,191.85,3.05,90.00,2.25,2025-11-22 22:15,2025-11-22 22:22:53
EXEC-20251122-002,Nha Trang,KH,Miền Trung,Vietnam,12.2500,109.1833,Asia/Ho_Chi_Minh,2025-11-22 22:21,23.1,73.6,25.5,77.8,93,15.1,9.4,14,NNE,25.3,15.7,1014.0,29.93,1.2,0.05,99,0.0,10.0,6.0,"Light rain shower",1240,1,1,7.65,9.45,185.85,3.05,86.00,2.05,2025-11-22 22:15,2025-11-22 22:22:53
EXEC-20251122-002,Phan Rang,NT,Miền Trung,Vietnam,11.5667,108.9833,Asia/Ho_Chi_Minh,2025-11-22 22:21,23.2,73.7,25.5,77.9,94,19.8,12.3,16,NNE,32.0,19.9,1014.0,29.93,1.0,0.04,92,0.0,10.0,6.0,"Light rain shower",1240,1,1,6.05,7.55,168.85,3.05,87.00,2.05,2025-11-22 22:15,2025-11-22 22:22:54
EXEC-20251122-002,Phan Thiết,BT,Miền Trung,Vietnam,10.9333,108.1000,Asia/Ho_Chi_Minh,2025-11-22 22:21,24.0,75.2,26.3,79.3,89,15.1,9.4,53,NE,25.5,15.8,1011.0,29.87,0.0,0.00,87,0.0,10.0,6.0,"Cloudy",1006,1,1,6.25,8.15,220.85,3.45,84.00,2.45,2025-11-22 22:15,2025-11-22 22:22:54
EXEC-20251122-002,Kon Tum,KT,Tây Nguyên,Vietnam,14.3667,107.9500,Asia/Ho_Chi_Minh,2025-11-22 22:21,19.6,67.3,19.6,67.3,86,3.6,2.2,43,NE,5.2,3.2,1015.0,29.98,0.0,0.00,70,0.0,10.0,6.0,"Cloudy",1006,1,1,4.95,4.95,292.85,2.95,95.00,4.35,2025-11-22 22:15,2025-11-22 22:22:54
EXEC-20251122-002,Pleiku,GL,Tây Nguyên,Vietnam,13.9833,108.0000,Asia/Ho_Chi_Minh,2025-11-22 22:21,19.8,67.7,19.8,67.7,86,16.2,10.1,42,NE,25.2,15.6,1015.0,29.96,0.0,0.00,84,0.0,10.0,6.0,"Cloudy",1006,1,1,3.35,3.35,308.85,4.45,87.00,5.75,2025-11-22 22:15,2025-11-22 22:22:55
EXEC-20251122-002,Buôn Ma Thuột,DL,Tây Nguyên,Vietnam,12.6667,108.0500,Asia/Ho_Chi_Minh,2025-11-22 22:21,20.4,68.7,20.4,68.7,97,9.7,6.0,64,ENE,15.9,9.9,1014.0,29.94,0.0,0.00,100,0.0,2.0,1.0,"Mist",1030,1,1,5.95,5.95,321.85,5.45,79.00,5.95,2025-11-22 22:15,2025-11-22 22:22:56
EXEC-20251122-002,Gia Nghĩa,DNO,Tây Nguyên,Vietnam,11.9833,107.7000,Asia/Ho_Chi_Minh,2025-11-22 22:21,18.7,65.6,18.7,65.6,99,9.7,6.0,49,NE,15.7,9.8,1014.0,29.93,0.0,0.00,100,0.0,0.0,0.0,"Fog",1135,1,1,4.05,4.05,243.85,4.25,72.00,3.55,2025-11-22 22:15,2025-11-22 22:22:56
EXEC-20251122-002,Đà Lạt,LD,Tây Nguyên,Vietnam,11.9333,108.4167,Asia/Ho_Chi_Minh,2025-11-22 22:21,17.0,62.7,17.1,62.7,96,6.8,4.3,59,ENE,10.9,6.8,1015.0,29.97,0.0,0.00,100,0.0,2.0,1.0,"Mist",1030,1,1,1.95,1.95,206.85,5.15,67.00,2.45,2025-11-22 22:15,2025-11-22 22:22:57
EXEC-20251122-002,Hồ Chí Minh,HCM,Miền Nam,Vietnam,10.7500,106.6667,Asia/Ho_Chi_Minh,2025-11-22 22:21,26.3,79.3,29.7,85.5,84,4.7,2.9,1,N,7.7,4.8,1011.0,29.85,0.0,0.00,0,0.0,10.0,6.0,"Partly Cloudy",1003,2,2,19.15,19.15,1059.85,40.65,80.00,20.85,2025-11-22 22:15,2025-11-22 22:22:57
EXEC-20251122-002,Đồng Xoài,BP,Miền Nam,Vietnam,11.5333,106.9167,Asia/Ho_Chi_Minh,2025-11-22 22:21,22.9,73.2,25.1,77.1,85,10.1,6.3,38,NE,18.1,11.2,1012.0,29.87,0.0,0.00,49,0.0,10.0,6.0,"Partly Cloudy",1003,1,1,6.45,6.45,285.85,5.05,65.00,4.35,2025-11-22 22:15,2025-11-22 22:22:57
EXEC-20251122-002,Tây Ninh,TNI,Miền Nam,Vietnam,11.3000,106.1000,Asia/Ho_Chi_Minh,2025-11-22 22:21,23.7,74.7,25.7,78.2,79,14.0,8.7,24,NNE,23.1,14.4,1012.0,29.87,0.0,0.00,86,0.0,10.0,6.0,"Cloudy",1006,1,1,6.35,6.45,294.85,4.95,73.00,5.35,2025-11-22 22:15,2025-11-22 22:22:58
EXEC-20251122-002,Thủ Dầu Một,BDU,Miền Nam,Vietnam,10.9500,106.8170,Asia/Ho_Chi_Minh,2025-11-22 22:21,26.3,79.3,29.8,85.7,84,4.7,2.9,28,NNE,8.0,4.9,1011.0,29.85,0.0,0.00,0,0.0,10.0,6.0,"Partly Cloudy",1003,2,2,19.15,19.15,385.85,40.65,80.00,20.85,2025-11-22 22:15,2025-11-22 22:22:58
EXEC-20251122-002,Biên Hòa,DNa,Miền Nam,Vietnam,10.9500,106.8167,Asia/Ho_Chi_Minh,2025-11-22 22:21,26.3,79.3,29.8,85.7,84,4.7,2.9,28,NNE,8.0,4.9,1011.0,29.85,0.0,0.00,0,0.0,10.0,6.0,"Partly Cloudy",1003,2,2,19.15,19.15,385.85,40.65,80.00,20.85,2025-11-22 22:15,2025-11-22 22:22:58
EXEC-20251122-002,Vũng Tàu,BRVT,Miền Nam,Vietnam,10.3500,107.0667,Asia/Ho_Chi_Minh,2025-11-22 22:21,26.3,79.3,29.2,84.6,84,9.0,5.6,23,NNE,13.4,8.3,1011.0,29.85,0.0,0.00,0,0.0,10.0,6.0,"Patchy rain nearby",1063,2,2,16.05,17.45,447.85,27.15,86.00,13.05,2025-11-22 22:15,2025-11-22 22:22:59
EXEC-20251122-002,Tân An,LA,Miền Nam,Vietnam,10.5333,106.4167,Asia/Ho_Chi_Minh,2025-11-22 22:21,26.3,79.3,30.1,86.1,84,5.0,3.1,353,N,8.7,5.4,1011.0,29.85,0.0,0.00,0,0.0,10.0,6.0,"Cloudy",1006,2,2,22.85,22.95,570.85,20.85,91.00,24.85,2025-11-22 22:15,2025-11-22 22:22:59
EXEC-20251122-002,Mỹ Tho,TG,Miền Nam,Vietnam,10.3500,106.3500,Asia/Ho_Chi_Minh,2025-11-22 22:21,26.3,79.3,30.3,86.5,84,4.7,2.9,10,N,8.2,5.1,1011.0,29.85,0.0,0.00,0,0.0,10.0,6.0,"Overcast",1009,2,2,22.85,22.95,653.85,20.85,91.00,24.85,2025-11-22 22:15,2025-11-22 22:22:59
EXEC-20251122-002,Bến Tre,BTE,Miền Nam,Vietnam,10.2333,106.3833,Asia/Ho_Chi_Minh,2025-11-22 22:22,26.3,79.3,30.3,86.5,84,4.3,2.7,359,N,7.6,4.7,1011.0,29.85,0.0,0.00,0,0.0,10.0,6.0,"Overcast",1009,2,2,22.85,22.95,653.85,20.85,91.00,24.85,2025-11-22 22:15,2025-11-22 22:23:00
EXEC-20251122-002,Trà Vinh,TV,Miền Nam,Vietnam,9.9347,106.3453,Asia/Ho_Chi_Minh,2025-11-22 22:22,22.8,73.0,25.1,77.2,93,5.0,3.1,2,N,8.8,5.5,1012.0,29.87,0.1,0.00,57,0.0,10.0,6.0,"Patchy rain nearby",1063,2,2,18.85,18.85,516.85,15.15,84.00,17.45,2025-11-22 22:15,2025-11-22 22:23:00
EXEC-20251122-002,Vĩnh Long,VL,Miền Nam,Vietnam,10.2500,105.9667,Asia/Ho_Chi_Minh,2025-11-22 22:21,22.8,73.0,25.1,77.1,90,6.5,4.0,14,NNE,11.0,6.8,1012.0,29.88,0.0,0.00,100,0.0,10.0,6.0,"Overcast",1009,1,1,10.35,10.35,365.85,10.15,78.00,10.75,2025-11-22 22:15,2025-11-22 22:23:00
EXEC-20251122-002,Cao Lãnh,DT,Miền Nam,Vietnam,10.4500,105.6333,Asia/Ho_Chi_Minh,2025-11-22 22:22,23.0,73.5,25.3,77.5,88,7.6,4.7,9,N,12.7,7.9,1012.0,29.88,0.0,0.00,100,0.0,10.0,6.0,"Overcast",1009,1,1,10.15,10.15,341.85,9.65,78.00,7.85,2025-11-22 22:15,2025-11-22 22:23:01
EXEC-20251122-002,Long Xuyên,AG,Miền Nam,Vietnam,10.3833,105.4167,Asia/Ho_Chi_Minh,2025-11-22 22:21,22.9,73.3,25.2,77.3,88,8.6,5.4,12,NNE,14.5,9.0,1012.0,29.88,0.0,0.00,100,0.0,10.0,6.0,"Patchy rain nearby",1063,1,1,10.15,10.15,319.85,9.65,78.00,7.85,2025-11-22 22:15,2025-11-22 22:23:01
EXEC-20251122-002,Rạch Giá,KG,Miền Nam,Vietnam,10.0170,105.0830,Asia/Ho_Chi_Minh,2025-11-22 22:21,23.4,74.1,25.5,78.0,88,13.0,8.1,35,NE,19.5,12.1,1012.0,29.88,0.1,0.00,100,0.0,10.0,6.0,"Patchy rain nearby",1063,1,1,10.65,10.65,292.85,8.15,82.00,9.45,2025-11-22 22:15,2025-11-22 22:23:01
EXEC-20251122-002,Cần Thơ,CT,Miền Nam,Vietnam,10.0333,105.7833,Asia/Ho_Chi_Minh,2025-11-22 22:21,22.7,72.8,25.0,77.0,91,7.2,4.5,15,NNE,12.1,7.5,1012.0,29.87,0.0,0.00,100,0.0,10.0,6.0,"Patchy rain nearby",1063,1,1,11.95,11.95,481.85,11.55,78.00,11.95,2025-11-22 22:15,2025-11-22 22:23:02
EXEC-20251122-002,Vị Thanh,HGI,Miền Nam,Vietnam,9.7844,105.4731,Asia/Ho_Chi_Minh,2025-11-22 22:21,22.2,71.9,24.7,76.5,97,8.6,5.4,6,N,14.1,8.8,1012.0,29.87,0.6,0.02,80,0.0,2.0,1.0,"Light drizzle",1153,1,2,13.55,13.55,327.85,10.95,78.00,13.35,2025-11-22 22:15,2025-11-22 22:23:02
EXEC-20251122-002,Sóc Trăng,ST,Miền Nam,Vietnam,9.6030,105.9800,Asia/Ho_Chi_Minh,2025-11-22 22:22,22.4,72.3,24.9,76.7,96,8.6,5.4,14,NNE,14.6,9.1,1012.0,29.87,0.0,0.00,80,0.0,2.0,1.0,"Mist",1030,2,2,16.55,16.95,361.85,11.95,78.00,13.55,2025-11-22 22:15,2025-11-22 22:23:02
EXEC-20251122-002,Bạc Liêu,BL,Miền Nam,Vietnam,9.2850,105.7240,Asia/Ho_Chi_Minh,2025-11-22 22:21,22.6,72.7,25.1,77.1,97,13.0,8.1,12,NNE,19.8,12.3,1011.0,29.86,1.8,0.07,100,0.0,9.0,5.0,"Light rain",1183,1,2,14.55,15.55,337.85,9.45,83.00,11.15,2025-11-22 22:15,2025-11-22 22:23:03
EXEC-20251122-002,Cà Mau,CM,Miền Nam,Vietnam,9.1769,105.1500,Asia/Ho_Chi_Minh,2025-11-22 22:21,22.3,72.1,24.8,76.6,96,9.7,6.0,22,NNE,15.3,9.5,1012.0,29.87,1.3,0.05,88,0.0,9.0,5.0,"Light rain",1183,1,1,11.65,11.75,310.85,7.85,80.00,10.55,2025-11-22 22:15,2025-11-22 22:23:03
